{
    "items": [
        {
            "city": "San Francisco",
            "countryCode": "US",
            "id": "Z7r9jZaeiE",
            "latitude": 37.773102,
            "longitude": -122.411003,
            "name": "1015 Folsom",
            "stateCode": "CA",
            "street": "1015 Folsom Street",
            "zipCode": "94103"
        },
        {
            "city": "San Francisco",
            "countryCode": "US",
            "id": "KovZpZAa17tA",
            "latitude": 37.7726402,
            "longitude": -122.4099154,
            "name": "1015 FOLSOM",
            "stateCode": "CA",
            "street": "1015 Folsom St",
            "zipCode": "94103"
        },
        {
            "city": "Frisco",
            "countryCode": "US",
            "id": "Z7r9jZadtR",
            "latitude": 39.563999,
            "longitude": -106.162697,
            "name": "10 Mile Music Hall",
            "stateCode": "CO",
            "street": "710 Main Street",
            "zipCode": "80443"
        },
        {
            "city": "Wayne",
            "countryCode": "US",
            "id": "Z7r9jZa7ew",
            "latitude": 40.062698,
            "longitude": -75.401497,
            "name": "118 North",
            "stateCode": "PA",
            "street": "188 N Wayne Ave",
            "zipCode": "19087"
        },
        {
            "city": "Jacksonville",
            "countryCode": "US",
            "id": "KovZpZAEkJFA",
            "latitude": 30.325334,
            "longitude": -81.642569,
            "name": "121 Financial Ballpark",
            "stateCode": "FL",
            "street": "301 A Philip Randolph Blvd.",
            "zipCode": "32202"
        },
        {
            "city": "Los Angeles",
            "countryCode": "US",
            "id": "KovZpa3Cre",
            "latitude": 34.0664373,
            "longitude": -118.4338345,
            "name": "1340 Macgowan",
            "stateCode": "CA",
            "street": "1340 Macgowan",
            "zipCode": "90024"
        },
        {
            "city": "Los Angeles",
            "countryCode": "US",
            "id": "Z7r9jZadbo",
            "latitude": 34.028702,
            "longitude": -118.239197,
            "name": "1720",
            "stateCode": "CA",
            "street": "1720 E 16th St",
            "zipCode": "90021"
        },
        {
            "city": "Las Vegas",
            "countryCode": "US",
            "id": "KovZ917ALT7",
            "latitude": 36.116327,
            "longitude": -115.186558,
            "name": "172 at Rio Las Vegas",
            "stateCode": "NV",
            "street": "3700 W Flamingo Road",
            "zipCode": "89103"
        },
        {
            "city": "Lincoln",
            "countryCode": "US",
            "id": "KovZpZAklkIA",
            "latitude": 40.814563,
            "longitude": -96.701403,
            "name": "1867 Bar",
            "stateCode": "NE",
            "street": "101 North 14th Street",
            "zipCode": "68508"
        },
        {
            "city": "Memphis",
            "countryCode": "US",
            "id": "Z7r9jZaeY-",
            "latitude": 35.1334,
            "longitude": -90.003098,
            "name": "1884 Lounge",
            "stateCode": "TN",
            "street": "1555 Madison Ave",
            "zipCode": "38104"
        },
        {
            "city": "Jacksonville",
            "countryCode": "US",
            "id": "Z7r9jZaecK",
            "latitude": 30.3276,
            "longitude": -81.647003,
            "name": "1904 Music Hall",
            "stateCode": "FL",
            "street": "19 Ocean Street",
            "zipCode": "32202"
        },
        {
            "city": "Tucson",
            "countryCode": "US",
            "id": "Z7r9jZae-g",
            "latitude": 32.216702,
            "longitude": -110.970901,
            "name": "191 Toole",
            "stateCode": "AZ",
            "street": "191 E. Toole Ave",
            "zipCode": "85701"
        },
        {
            "city": "Tucson",
            "countryCode": "US",
            "id": "KovZpZAt6ndA",
            "latitude": 32.225101,
            "longitude": -110.969001,
            "name": "191 Toole",
            "stateCode": "AZ",
            "street": "191 E Toole Ave",
            "zipCode": "85701"
        },
        {
            "city": "Bakersfield",
            "countryCode": "US",
            "id": "KovZpZA6dl6A",
            "latitude": 35.391264,
            "longitude": -119.089285,
            "name": "1933 Event Center",
            "stateCode": "CA",
            "street": "7900 Downing Avenue",
            "zipCode": "93308"
        },
        {
            "city": "Las Vegas",
            "countryCode": "US",
            "id": "KovZpZAEdlaA",
            "latitude": 36.121195,
            "longitude": -115.174074,
            "name": "1OAK at Mirage",
            "stateCode": "NV",
            "street": "3400 S Las Vegas Blvd",
            "zipCode": "89109"
        },
        {
            "city": "Broomfield",
            "countryCode": "US",
            "id": "KovZpZAa1JnA",
            "latitude": 39.904696,
            "longitude": -105.085281,
            "name": "1STBANK Center",
            "stateCode": "CO",
            "street": "11450 Broomfield Ln",
            "zipCode": "80021"
        },
        {
            "city": "Johnstown",
            "countryCode": "US",
            "id": "KovZpa39be",
            "latitude": 40.3230274,
            "longitude": -78.9227214,
            "name": "1st SUMMIT ARENA at Cambria County War Memorial",
            "stateCode": "PA",
            "street": "326 Napoleon Street",
            "zipCode": "15901"
        },
        {
            "city": "Atlanta",
            "countryCode": "US",
            "id": "KovZpZAaetJA",
            "name": "1Up Comedy",
            "stateCode": "GA",
            "street": "644 North Highland Avenue Northeast",
            "zipCode": "30306"
        },
        {
            "city": "Grand Rapids",
            "countryCode": "US",
            "id": "KovZ917AGpf",
            "latitude": 42.963401,
            "longitude": -85.672069,
            "name": "20 Monroe Live",
            "stateCode": "MI",
            "street": "11 Ottawa Avenue Northwest",
            "zipCode": "49503"
        },
        {
            "city": "Cincinnati",
            "countryCode": "US",
            "id": "ZFr9jZ7vve",
            "latitude": 39.152802,
            "longitude": -84.4263,
            "name": "20th Century Theater",
            "stateCode": "OH",
            "street": "3021 Madison Road",
            "zipCode": "45209"
        },
        {
            "city": "Cincinnati",
            "countryCode": "US",
            "id": "KovZpZAa1alA",
            "latitude": 39.15104,
            "longitude": -84.432694,
            "name": "20th Century Theater",
            "stateCode": "OH",
            "street": "3021 Madison Ave.",
            "zipCode": "45209"
        },
        {
            "city": "New York",
            "countryCode": "US",
            "id": "KovZpZA671EA",
            "latitude": 40.74394,
            "longitude": 73.98798,
            "name": "230 Fifth Rooftop & Empire Room",
            "stateCode": "NY",
            "street": "230 Fifth Avenue",
            "zipCode": "10001"
        },
        {
            "city": "Virginia Beach",
            "countryCode": "US",
            "id": "KovZpZAaaIJA",
            "latitude": 36.9133987,
            "longitude": -76.0652923,
            "name": "24th Street Park",
            "stateCode": "VA",
            "street": "24th Street & Oceanfront ",
            "zipCode": "23451"
        },
        {
            "city": "Virginia Beach",
            "countryCode": "US",
            "id": "KovZpZAI11eA",
            "latitude": 36.859605,
            "longitude": -75.978,
            "name": "31st Street Park - Oceanfront",
            "stateCode": "VA",
            "street": "31st and Atlantic Avenue",
            "zipCode": "23451"
        },
        {
            "city": "Nashville",
            "countryCode": "US",
            "id": "KovZpZA16IvA",
            "latitude": 36.1521623,
            "longitude": -86.7701,
            "name": "3rd & Lindsley",
            "stateCode": "TN",
            "street": "816 3rd Ave. South",
            "zipCode": "37210"
        },
        {
            "city": "Nashville",
            "countryCode": "US",
            "id": "ZFr9jZA1vk",
            "latitude": 36.143902,
            "longitude": -86.733398,
            "name": "3rd & Lindsley",
            "stateCode": "TN",
            "street": "818 3rd Avenue South",
            "zipCode": "37210"
        },
        {
            "city": "Portsmouth",
            "countryCode": "US",
            "id": "Z7r9jZaeUh",
            "latitude": 43.0695,
            "longitude": -70.800797,
            "name": "3S Artspace",
            "stateCode": "NH",
            "street": "319 Vaughan Street",
            "zipCode": "03801"
        },
        {
            "city": "Austin",
            "countryCode": "US",
            "id": "KovZ917AxfF",
            "latitude": 30.265754,
            "longitude": -97.747077,
            "name": "3TEN Austin City Limits Live",
            "stateCode": "TX",
            "street": "310 Willie Nelson Blvd, Suite 1A",
            "zipCode": "78701"
        },
        {
            "city": "Houston",
            "countryCode": "US",
            "id": "KovZ917AOJ3",
            "latitude": 29.762416,
            "longitude": -95.367495,
            "name": "40 Below - Under Revention Music Center",
            "stateCode": "TX",
            "street": "520 Texas Ave",
            "zipCode": "77002"
        },
        {
            "city": "Athens",
            "countryCode": "US",
            "id": "ZFr9jZkAAv",
            "latitude": 34.005199,
            "longitude": -83.347504,
            "name": "40 Watt Club",
            "stateCode": "GA",
            "street": "285 W.  Washington",
            "zipCode": "30601"
        },
        {
            "city": "Portland",
            "countryCode": "US",
            "id": "Z7r9jZad7E",
            "latitude": 45.513901,
            "longitude": -122.642799,
            "name": "45 East",
            "stateCode": "OR",
            "street": "315 SE 3rd Ave",
            "zipCode": "97214"
        },
        {
            "city": "Atlanta",
            "countryCode": "US",
            "id": "Z7r9jZadIs",
            "latitude": 33.7136,
            "longitude": -84.332802,
            "name": "529 Bar",
            "stateCode": "GA",
            "street": "529 Flat Shoals Ave, SE",
            "zipCode": "30316"
        },
        {
            "city": "Seattle",
            "countryCode": "US",
            "id": "ZAr9jZ6ehK",
            "latitude": 47.6115,
            "longitude": -122.334297,
            "name": "5th Avenue Theatre",
            "stateCode": "WA",
            "street": "1308 5th Ave",
            "zipCode": "98101"
        },
        {
            "city": "Virginia Beach",
            "countryCode": "US",
            "id": "KovZpa4Ije",
            "latitude": 40.7248662,
            "longitude": -73.9844009,
            "name": "5th Street Beach",
            "stateCode": "VA",
            "street": "5th Street & Atlantic Ave. (Oceanfront)",
            "zipCode": "23451"
        },
        {
            "city": "Virginia Beach",
            "countryCode": "US",
            "id": "KovZpZAaaktA",
            "latitude": 36.8337735,
            "longitude": -75.9710851,
            "name": "5th Street Beach Stage",
            "stateCode": "VA",
            "street": "5th Street & Atlantic Avenue",
            "zipCode": "23451"
        },
        {
            "city": "Virginia Beach",
            "countryCode": "US",
            "id": "ZFr9jZ7F16",
            "latitude": 36.863201,
            "longitude": -76.000801,
            "name": "5th Street Beach Stage",
            "stateCode": "VA",
            "street": "5th Street & Atlantic Avenue",
            "zipCode": "23451"
        },
        {
            "city": "Wilmington",
            "countryCode": "US",
            "id": "Z7r9jZadsu",
            "latitude": 39.722,
            "longitude": -75.538597,
            "name": "76ers Fieldhouse",
            "stateCode": "DE",
            "street": "401 GARASCHES LANE",
            "zipCode": "19801"
        },
        {
            "city": "Newkirk",
            "countryCode": "US",
            "id": "ZFr9jZ6ae7",
            "latitude": 36.9105,
            "longitude": -97.048698,
            "name": "7 Clans First Council Casino Hotel",
            "stateCode": "OK",
            "street": "12875 North Highway 77",
            "zipCode": "74647"
        },
        {
            "city": "Minneapolis",
            "countryCode": "US",
            "id": "ZFr9jZAAAd",
            "latitude": 44.970299,
            "longitude": -93.286102,
            "name": "7th Street Entry",
            "stateCode": "MN",
            "street": "29 N 7th Street",
            "zipCode": "55403"
        },
        {
            "city": "Patchogue",
            "countryCode": "US",
            "id": "KovZpZAklkkA",
            "latitude": 40.767323,
            "longitude": -73.014837,
            "name": "89 North",
            "stateCode": "NY",
            "street": "89 N. Ocean Avenue",
            "zipCode": "11772"
        },
        {
            "city": "Indianapolis",
            "countryCode": "US",
            "id": "KovZpZAF7AnA",
            "latitude": 39.768343,
            "longitude": -86.249381,
            "name": "8 Seconds Saloon",
            "stateCode": "IN",
            "street": "111 N Lynhurst Dr",
            "zipCode": "46224"
        },
        {
            "city": "Washington",
            "countryCode": "US",
            "id": "ZFr9jZdeda",
            "latitude": 38.910198,
            "longitude": -77.017899,
            "name": "9:30 Club",
            "stateCode": "DC",
            "street": "815 V St. N.W.",
            "zipCode": "20001"
        },
        {
            "city": "Columbus",
            "countryCode": "US",
            "id": "KovZpZAEAAIA",
            "latitude": 39.969491,
            "longitude": -83.010007,
            "name": "A and R Music Bar",
            "stateCode": "OH",
            "street": "391 Neil Ave.",
            "zipCode": "43215"
        },
        {
            "city": "Hixson",
            "countryCode": "US",
            "id": "Z7r9jZad_O",
            "latitude": 35.167,
            "longitude": -85.213699,
            "name": "Abba's House",
            "stateCode": "TN",
            "street": "5208 Hixson Pike",
            "zipCode": "37343"
        },
        {
            "city": "Ft Lauderdale",
            "countryCode": "US",
            "id": "KovZpZAEeadA",
            "latitude": 26.1193,
            "longitude": -80.149426,
            "name": "Abdo New River Room at the Broward Center",
            "stateCode": "FL",
            "street": "201 SW 5th Avenue",
            "zipCode": "33312"
        },
        {
            "city": "Lawrence",
            "countryCode": "US",
            "id": "KovZpZA17FIA",
            "latitude": 38.9731631,
            "longitude": -95.235742,
            "name": "Abe and Jakes Landing",
            "stateCode": "KS",
            "street": "8 E 6th St",
            "zipCode": "66044"
        },
        {
            "city": "Boca Raton",
            "countryCode": "US",
            "id": "KovZpa3Qee",
            "latitude": 26.365668,
            "longitude": -80.106093,
            "name": "Abessinio Court at FAU Arena",
            "stateCode": "FL",
            "street": "777 Glades Road",
            "zipCode": "33431"
        },
        {
            "city": "El Paso",
            "countryCode": "US",
            "id": "KovZpa3VBe",
            "latitude": 31.758915,
            "longitude": -106.492664,
            "name": "Abraham Chavez Theatre",
            "stateCode": "TX",
            "street": "1 Civic Center Plaza",
            "zipCode": "79901"
        },
        {
            "city": "Salt Lake City",
            "countryCode": "US",
            "id": "ZFr9jZd6vF",
            "latitude": 40.756599,
            "longitude": -111.8992,
            "name": "Abravanel Hall",
            "stateCode": "UT",
            "street": "123 W South Temple",
            "zipCode": "84101"
        },
        {
            "city": "Lynchburg",
            "countryCode": "US",
            "id": "Z7r9jZadfI",
            "latitude": 37.339802,
            "longitude": -79.0606,
            "name": "Academy Center of the Arts",
            "stateCode": "VA",
            "street": "600 Main St., Lynchburg, VA 24504",
            "zipCode": "24504"
        },
        {
            "city": "Los Angeles",
            "countryCode": "US",
            "id": "Z7r9jZadLB",
            "latitude": 34.0998,
            "longitude": -118.326897,
            "name": "Academy Nightclub",
            "stateCode": "CA",
            "street": "6021 Hollywood Blvd",
            "zipCode": "90028"
        },
        {
            "city": "Philadelphia",
            "countryCode": "US",
            "id": "Zkr9jZeFeN",
            "latitude": 39.953098,
            "longitude": -75.1651,
            "name": "Academy of Music - PA",
            "stateCode": "PA",
            "street": "240 South Broad Street",
            "zipCode": "19102"
        },
        {
            "city": "Northampton",
            "countryCode": "US",
            "id": "Z7r9jZaell",
            "latitude": 42.323002,
            "longitude": -72.6707,
            "name": "Academy of Music Theatre - MA",
            "stateCode": "MA",
            "street": "274 Main Street",
            "zipCode": "01060"
        },
        {
            "city": "North Las Vegas",
            "countryCode": "US",
            "id": "KovZpZAa1dtA",
            "latitude": 36.29188302,
            "longitude": -115.18139765,
            "name": "Access at Aliante Casino & Hotel",
            "stateCode": "NV",
            "street": "7300 Aliante Parkway",
            "zipCode": "89084"
        },
        {
            "city": "Los Angeles",
            "countryCode": "US",
            "id": "ZFr9jZ1a16",
            "latitude": 34.0397,
            "longitude": -118.266403,
            "name": "Ace Hotel Los Angeles",
            "stateCode": "CA",
            "street": "929 Broadway",
            "zipCode": "90015"
        },
        {
            "city": "Columbus",
            "countryCode": "US",
            "id": "Z7r9jZaduo",
            "latitude": 40.0219,
            "longitude": -83.013603,
            "name": "Ace of Cups",
            "stateCode": "OH",
            "street": "2619 N. High St., Columbus, OH 43202",
            "zipCode": "43202"
        },
        {
            "city": "Sacramento",
            "countryCode": "US",
            "id": "KovZpZAJ6lvA",
            "latitude": 38.569993,
            "longitude": -121.49087928,
            "name": "Ace of Spades",
            "stateCode": "CA",
            "street": "1417 R St.",
            "zipCode": "95811"
        },
        {
            "city": "Missoula",
            "countryCode": "US",
            "id": "KovZpa9gie",
            "latitude": 46.8605725,
            "longitude": -113.9821243,
            "name": "Adams Center Arena",
            "stateCode": "MT",
            "street": "32 Campus Drive",
            "zipCode": "59812"
        },
        {
            "city": "Brighton",
            "countryCode": "US",
            "id": "ZFr9jZAAeA",
            "latitude": 39.9758,
            "longitude": -104.809196,
            "name": "Adams County Fairgrounds - Brighton",
            "stateCode": "CO",
            "street": "9755 Henderson Road",
            "zipCode": "80601"
        },
        {
            "city": "Missoula",
            "countryCode": "US",
            "id": "ZFr9jZdFAe",
            "latitude": 46.861099,
            "longitude": -113.986,
            "name": "Adams Event Center",
            "stateCode": "MT",
            "street": "32 Campus Drive",
            "zipCode": "59812"
        },
        {
            "city": "Addison",
            "countryCode": "US",
            "id": "KovZpZAdFvIA",
            "latitude": 32.953603,
            "longitude": -96.826685,
            "name": "Addison Improv",
            "stateCode": "TX",
            "street": "4980 Beltline Road #250",
            "zipCode": "75254 "
        },
        {
            "city": "Orlando",
            "countryCode": "US",
            "id": "KovZpZAE7aIA",
            "latitude": 28.6064557,
            "longitude": -81.1985302,
            "name": "Addition Financial Arena",
            "stateCode": "FL",
            "street": "12777 Gemini Blvd",
            "zipCode": "32816"
        },
        {
            "city": "Utica",
            "countryCode": "US",
            "id": "ZFr9jZeF1F",
            "latitude": 43.0811,
            "longitude": -75.227203,
            "name": "Adirondack Bank Center",
            "stateCode": "NY",
            "street": "400 Oriskany St. West",
            "zipCode": "13501"
        },
        {
            "city": "Davenport",
            "countryCode": "US",
            "id": "KovZpZAEAn6A",
            "latitude": 41.5224552,
            "longitude": -90.5734902,
            "name": "Adler Theatre",
            "stateCode": "IA",
            "street": "136 E 3rd St",
            "zipCode": "52801"
        },
        {
            "city": "Bremerton",
            "countryCode": "US",
            "id": "ZFr9jZkF6a",
            "latitude": 47.566101,
            "longitude": -122.637802,
            "name": "Admiral Theatre - WA",
            "stateCode": "WA",
            "street": "515 Pacific Ave",
            "zipCode": "98337"
        },
        {
            "city": "Merriam",
            "countryCode": "US",
            "id": "Z7r9jZaesv",
            "latitude": 39.021301,
            "longitude": -94.706802,
            "name": "Aftershock",
            "stateCode": "KS",
            "street": "5240 Merriam Dr",
            "zipCode": "66203"
        },
        {
            "city": "Merriam",
            "countryCode": "US",
            "id": "KovZpZA17lJA",
            "latitude": 39.033474,
            "longitude": -94.691376,
            "name": "Aftershock",
            "stateCode": "KS",
            "street": "5240 Merriam Drive",
            "zipCode": "66023"
        },
        {
            "city": "Boston",
            "countryCode": "US",
            "id": "ZFr9jZ7kdv",
            "latitude": 42.346901,
            "longitude": -71.102501,
            "name": "Agganis Arena",
            "stateCode": "MA",
            "street": "925 Commonwealth Ave",
            "zipCode": "02215"
        },
        {
            "city": "Boston",
            "countryCode": "US",
            "id": "KovZpZAFd1nA",
            "latitude": 42.3514544,
            "longitude": -71.1176226,
            "name": "Agganis Arena",
            "stateCode": "MA",
            "street": "925 Commonwealth Ave",
            "zipCode": "02215"
        },
        {
            "city": "Fort Collins",
            "countryCode": "US",
            "id": "ZFr9jZkve6",
            "latitude": 40.647499,
            "longitude": -105.0476,
            "name": "Aggie Theater",
            "stateCode": "CO",
            "street": "204 S College Ave",
            "zipCode": "80524"
        },
        {
            "city": "Cleveland",
            "countryCode": "US",
            "id": "Zkr9jZddeh",
            "latitude": 41.481201,
            "longitude": -81.698402,
            "name": "Agora Theatre",
            "stateCode": "OH",
            "street": "5000 Euclid Avenue",
            "zipCode": "44113"
        },
        {
            "city": "New York",
            "countryCode": "US",
            "id": "KovZpZA67dtA",
            "name": "Ahearn Coliseum",
            "stateCode": "NY",
            "street": "12345 Main Street",
            "zipCode": "10036"
        },
        {
            "city": "Los Angeles",
            "countryCode": "US",
            "id": "Zkr9jZd7eq",
            "latitude": 34.0658,
            "longitude": -118.2388,
            "name": "Ahmanson Theatre",
            "stateCode": "CA",
            "street": "135 N. Grand Avenue",
            "zipCode": "90012"
        },
        {
            "city": "Aiken",
            "countryCode": "US",
            "id": "Z7r9jZadXJ",
            "latitude": 33.648399,
            "longitude": -81.681999,
            "name": "Aiken Community Theatre",
            "stateCode": "SC",
            "street": "126 Newberry St SW",
            "zipCode": "29801"
        },
        {
            "city": "Atlanta",
            "countryCode": "US",
            "id": "KovZ917ACI0",
            "latitude": 33.764272,
            "longitude": -84.350224,
            "name": "Aisle 5",
            "stateCode": "GA",
            "street": "1123 Euclid Ave NE",
            "zipCode": "30307"
        },
        {
            "city": "Atlanta",
            "countryCode": "US",
            "id": "Z7r9jZadZ1",
            "latitude": 33.770199,
            "longitude": -84.334602,
            "name": "Aisle 5",
            "stateCode": "GA",
            "street": "1123 Euclid Ave NE",
            "zipCode": "30307"
        },
        {
            "city": "Phoenix",
            "countryCode": "US",
            "id": "KovZpZAE6vJA",
            "latitude": 33.470823,
            "longitude": -112.232875,
            "name": "Ak-Chin Pavilion",
            "stateCode": "AZ",
            "street": "2121 N 83rd Ave",
            "zipCode": "85035"
        },
        {
            "city": "Akron",
            "countryCode": "US",
            "id": "KovZpZAFdE1A",
            "latitude": 41.0805464,
            "longitude": -81.51972039,
            "name": "Akron Civic Theatre",
            "stateCode": "OH",
            "street": "182 South Main Street",
            "zipCode": "44308"
        },
        {
            "city": "Birmingham",
            "countryCode": "US",
            "id": "KovZpZAdEEEA",
            "latitude": 33.515078,
            "longitude": -86.80918,
            "name": "Alabama Theatre",
            "stateCode": "AL",
            "street": "1817 3rd Ave. North",
            "zipCode": "35203"
        },
        {
            "city": "Portland",
            "countryCode": "US",
            "id": "KovZpa3qfe",
            "latitude": 45.501102,
            "longitude": -122.654253,
            "name": "Aladdin Theater",
            "stateCode": "OR",
            "street": "3017 SE Milwaukie Avenue",
            "zipCode": "97202"
        },
        {
            "city": "Portland",
            "countryCode": "US",
            "id": "Zkr9jZ7eeh",
            "latitude": 45.4818,
            "longitude": -122.640198,
            "name": "Aladdin Theater",
            "stateCode": "OR",
            "street": "3017 SE Milwaukie Ave",
            "zipCode": "97202"
        },
        {
            "city": "San Antonio",
            "countryCode": "US",
            "id": "KovZpZAEkIEA",
            "latitude": 29.41705466,
            "longitude": -98.4791514,
            "name": "Alamodome",
            "stateCode": "TX",
            "street": "100 Montana St",
            "zipCode": "78203"
        },
        {
            "city": "Seattle",
            "countryCode": "US",
            "id": "Z6r9jZFeae",
            "latitude": 47.6619,
            "longitude": -122.296402,
            "name": "Alaska Airlines Arena at Hec Edmundson Pavilion",
            "stateCode": "WA",
            "street": "4131 15th Ave NE",
            "zipCode": "98105"
        },
        {
            "city": "Albany",
            "countryCode": "US",
            "id": "KovZpZAFFn7A",
            "latitude": 31.5753517,
            "longitude": -84.149057,
            "name": "Albany Civic Center",
            "stateCode": "GA",
            "street": "100 W Ogelthorpe Blvd",
            "zipCode": "31702"
        },
        {
            "city": "Albany",
            "countryCode": "US",
            "id": "KovZpa4gme",
            "latitude": 31.5753404,
            "longitude": -84.1536489,
            "name": "Albany Municipal Auditorium",
            "stateCode": "GA",
            "street": "200 N Jackson St",
            "zipCode": "31702"
        },
        {
            "city": "Portland",
            "countryCode": "US",
            "id": "ZFr9jZ1617",
            "latitude": 45.575298,
            "longitude": -122.6436,
            "name": "Alberta Rose Theatre",
            "stateCode": "OR",
            "street": "3000 NE Alberta St",
            "zipCode": "97211"
        },
        {
            "city": "Los Angeles",
            "countryCode": "US",
            "id": "ZFr9jZF1Fa",
            "latitude": 33.9534,
            "longitude": -118.399902,
            "name": "Albert Gersten Pavilion",
            "stateCode": "CA",
            "street": "1 LMU Drive",
            "zipCode": "90045"
        },
        {
            "city": "San Francisco",
            "countryCode": "US",
            "id": "Z7r9jZadxU",
            "latitude": 37.8022,
            "longitude": -122.410896,
            "name": "Alcatraz Island",
            "stateCode": "CA",
            "street": "San Francisco, 94133",
            "zipCode": "94133"
        },
        {
            "city": "Providence",
            "countryCode": "US",
            "id": "Z7r9jZad2G",
            "latitude": 41.8204,
            "longitude": -71.412804,
            "name": "Alchemy",
            "stateCode": "RI",
            "street": "71 Richmond St., Providence, RI 02903",
            "zipCode": "02903"
        },
        {
            "city": "Maplewood",
            "countryCode": "US",
            "id": "KovZpZAkneaA",
            "latitude": 44.996991,
            "longitude": -93.023207,
            "name": "Aldrich Arena",
            "stateCode": "MN",
            "street": "1850 White Bear Avenue",
            "zipCode": "55109"
        },
        {
            "city": "Maplewood",
            "countryCode": "US",
            "id": "Z7r9jZadSe",
            "latitude": 45.0145,
            "longitude": -93.025902,
            "name": "Aldrich Arena",
            "stateCode": "MN",
            "street": "1850 White Bear Ave",
            "zipCode": "55109"
        },
        {
            "city": "Grand Forks",
            "countryCode": "US",
            "id": "KovZ917A2K7",
            "latitude": 47.910689,
            "longitude": -97.091111,
            "name": "Alerus Ballroom",
            "stateCode": "ND",
            "street": "1200 42nd Street South",
            "zipCode": "58201"
        },
        {
            "city": "Grand Forks",
            "countryCode": "US",
            "id": "KovZpZA7keEA",
            "latitude": 47.910614,
            "longitude": -97.090993,
            "name": "Alerus Center",
            "stateCode": "ND",
            "street": "1200 42nd Street South",
            "zipCode": "58201"
        },
        {
            "city": "Baton Rouge",
            "countryCode": "US",
            "id": "Z6r9jZ1AFe",
            "latitude": 30.445999,
            "longitude": -91.174004,
            "name": "Alex Box Stadium",
            "stateCode": "LA",
            "street": "N Stadium Rd & Nicholson Dr",
            "zipCode": "70802"
        },
        {
            "city": "San Luis Obispo",
            "countryCode": "US",
            "id": "ZFr9jZ1717",
            "latitude": 35.278301,
            "longitude": -120.741402,
            "name": "Alex Madonna Expo Center",
            "stateCode": "CA",
            "street": "100 Madonna Road",
            "zipCode": "93405"
        },
        {
            "city": "Glendale",
            "countryCode": "US",
            "id": "ZFr9jZAaek",
            "latitude": 34.152699,
            "longitude": -118.263901,
            "name": "Alex Theater",
            "stateCode": "CA",
            "street": "216 North Brand Boulevard",
            "zipCode": "91203"
        },
        {
            "city": "Gainesville",
            "countryCode": "US",
            "id": "KovZpZAa1EAA",
            "latitude": 29.6521198,
            "longitude": -82.349749,
            "name": "Alfred A. McKethan Stadium at Perry Field",
            "stateCode": "FL",
            "street": "Gale Lemerand Dr. and University Ave",
            "zipCode": "32611"
        },
        {
            "city": "Chicago",
            "countryCode": "US",
            "id": "KovZpZAFJAIA",
            "latitude": 41.884617,
            "longitude": -87.658375,
            "name": "Alhambra Palace",
            "stateCode": "IL",
            "street": "1240 W. Randolph St",
            "zipCode": "60607"
        },
        {
            "city": "New York",
            "countryCode": "US",
            "id": "KovZpZAEktAA",
            "latitude": 40.759288,
            "longitude": -73.989177,
            "name": "Al Hirschfeld Theatre",
            "stateCode": "NY",
            "street": "302 West 45th Street",
            "zipCode": "10036"
        },
        {
            "city": "New York",
            "countryCode": "US",
            "id": "ZFr9jZdkA7",
            "latitude": 40.7761,
            "longitude": -73.9841,
            "name": "Alice Tully Hall",
            "stateCode": "NY",
            "street": "1941 Broadway",
            "zipCode": "10023"
        }
    ],
    "totalCount": 4175
}